[{"lng":20.46,"lat":44.817,"street":"Francuska","number":"3","city":"Beograd","zipCode":11000},{"lng":19.843,"lat":45.255,"street":"Pozorišni trg","number":"1","city":"Novi Sad","zipCode":21000},{"lng":19.845,"lat":45.247,"street":"Sutjeska","number":"2","city":"Novi Sad","zipCode":21000},{"lng":20.421,"lat":44.814,"street":"Bulevar Arsenija Čarnojevića","number":"58","city":"Beograd","zipCode":11000},{"lng":19.863,"lat":45.252,"street":"Beogradska","number":"bb","city":"Petrovaradin","zipCode":21131},{"lng":19.845,"lat":45.255,"street":"Trg Slobode","number":"bb","city":"Novi Sad","zipCode":21000}]